{
   "results": [
      {
         "name": "Eye Q Superspeciality Hospitals Almora",
         "latitude": 21.172417,
         "longitude": 72.839751
      },
      {
         "name": "Combined Medical Institute Hospital",
         "latitude": 30.382353,
         "longitude": 78.029984
      },
      {
         "name": "City Hospital",
         "latitude": 29.9334,
         "longitude": 78.13362
      },
      {
         "name": "Abhilasha Eye Hospital",
         "latitude": 29.8565,
         "longitude": 77.87929
      },
      {
         "name": "Vedanta Jyoti Eye Hospital",
         "latitude": 29.86884,
         "longitude": 77.88028
      },
      {
         "name": "Kapoor Multispeciality Hospital",
         "latitude": 29.79098,
         "longitude": 77.86886
      },
      {
         "name": "Jaya Maxwell Hospital",
         "latitude": 29.91419,
         "longitude": 78.0443
      },
      {
         "name": "Shri Swami Bhumanand Hospital",
         "latitude": 29.91663,
         "longitude": 78.08242
      },
      {
         "name": "Ganga Mata Charitable Eye Hospital",
         "latitude": 29.98925,
         "longitude": 78.19258
      },
      {
         "name": "Luthra Nursing Home",
         "latitude": 29.924459,
         "longitude": 78.107704
      },
      {
         "name": "New Dev Bhoomi Hospital and Medical Research Centre",
         "latitude": 29.93165,
         "longitude": 78.1352
      },
      {
         "name": "Aarogyam Medical College & Hospital",
         "latitude": 29.926151,
         "longitude": 77.823372
      },
      {
         "name": "Bhagwati Hospitals Pvt Ltd.",
         "latitude": 29.86905,
         "longitude": 77.88001
      },
      {
         "name": "Vinay Vishal Health Care Pvt. Ltd.",
         "latitude": 29.86701,
         "longitude": 77.8772
      },
      {
         "name": "Metro Hospital & Heart Institute",
         "latitude": 29.967376,
         "longitude": 78.06263
      },
      {
         "name": "Ganga Valley Hospital",
         "latitude": 29.927936,
         "longitude": 78.146254
      },
      {
         "name": "Brijlal Hospital & Research Centre Pvt. Ltd.",
         "latitude": 29.245517,
         "longitude": 79.534295
      },
      {
         "name": "S K Nursing Home and Hospital",
         "latitude": 29.224138,
         "longitude": 79.531375
      },
      {
         "name": "Sai Hospital Nainital",
         "latitude": 29.21786,
         "longitude": 79.518589
      },
      {
         "name": "Siddhi Vinayak Hospital",
         "latitude": 29.22951,
         "longitude": 79.51949
      },
      {
         "name": "Vedanta Netralya LLP",
         "latitude": 29.22774,
         "longitude": 79.52966
      },
      {
         "name": "Brijesh Hospital",
         "latitude": 29.38697,
         "longitude": 79.1211
      },
      {
         "name": "Neelkanth Multispecialty Hospital",
         "latitude": 29.20628,
         "longitude": 79.51619
      },
      {
         "name": "Mattrix Hospital & Accident Care Pvt Ltd.",
         "latitude": 29.22055,
         "longitude": 79.51164
      },
      {
         "name": "Vivekanand Hospital",
         "latitude": 29.21875,
         "longitude": 79.51874
      },
      {
         "name": "Tewari Maternity Centre & Nursing Home",
         "latitude": 29.217846,
         "longitude": 79.51857
      },
      {
         "name": "Maa Jagdamba Super Speciality Hospital",
         "latitude": 29.20267,
         "longitude": 79.51589
      },
      {
         "name": "Kalyan Hospital",
         "latitude": 30.900965,
         "longitude": 75.857276
      },
      {
         "name": "Anurjun Maternity and Laparoscopy Surgical Centre",
         "latitude": 29.25192,
         "longitude": 79.44182
      },
      {
         "name": "Shri Ram Multispeciality Hospital",
         "latitude": 29.22583,
         "longitude": 79.53054
      },
      {
         "name": "Baba Neem Karori Multispeciality Hospital and Trauma Centre",
         "latitude": 29.33793,
         "longitude": 79.06364
      },
      {
         "name": "Eye Q Superspeciality Hospitals Haldwani",
         "latitude": 29.22803,
         "longitude": 79.53086
      },
      {
         "name": "Krishna Hospital and Research Centre",
         "latitude": 29.229265,
         "longitude": 79.532347
      },
      {
         "name": "City Hospital & Research Centre",
         "latitude": 29.18229,
         "longitude": 79.520734
      }
   ]
}